[
    {
        "lat": 49.895807986319255,
        "lng": 2.2681021392006544,
        "title": "Concert",
        "city": "Amiens",
        "date": "2025-03-20"
    },
    {
        "lat": 49.895807986319255,
        "lng": 2.2681021392006544,
        "title": "Concert",
        "city": "Amiens",
        "date": "2025-12-12"
    },
    {
        "lat": 45.740064310687856, 
        "lng": 3.154858387099852,
        "title": "Concert",
        "city": "Clermont-Ferrand",
        "date": "2025-03-22"
    },
    {
        "lat": 50.63276575459364, 
        "lng": 3.078581252161562,
        "title": "Concert",
        "city": "Lille",
        "date": "2025-03-25"
    },
    {
        "lat": 50.63276575459364, 
        "lng": 3.078581252161562,
        "title": "Concert",
        "city": "Lille",
        "date": "2025-06-18"
    },
    {
        "lat": 49.18009330724597,
        "lng": -0.3714683042439916,
        "title": "Concert",
        "city": "Caen",
        "date": "2025-03-26"
    },
    {
        "lat": 49.17089019000927, 
        "lng": -0.38189047490625455,
        "title": "Concert",
        "city": "Caen",
        "date": "2025-06-11"
    },
    {
        "lat": 48.89423763999462, 
        "lng": 2.3934951240385436,
        "title": "Concert",
        "city": "Paris",
        "date": "2025-03-28"
    },
    {
        "lat": 48.89423763999462, 
        "lng": 2.3934951240385436,
        "title": "Concert",
        "city": "Paris",
        "date": "2025-06-22"
    },
    {
        "lat": 49.245697238898835, 
        "lng": 6.128661269273283,
        "title": "Concert",
        "city": "Amneville",
        "date": "2025-03-29"
    },
    {
        "lat": 47.87031891181916, 
        "lng": 1.9137605747387028,
        "title": "Concert",
        "city": "Orléans",
        "date": "2025-04-02"
    },
    {
        "lat": 50.812622539328494, 
        "lng": 4.352070701217756,
        "title": "Concert",
        "city": "Bruxelles",
        "date": "2025-04-03"
    },
    {
        "lat": 50.812622539328494, 
        "lng": 4.352070701217756,
        "title": "Concert",
        "city": "Bruxelles",
        "date": "2025-04-04"
    },
    {
        "lat": 50.812622539328494, 
        "lng": 4.352070701217756,
        "title": "Concert",
        "city": "Bruxelles",
        "date": "2025-06-24"
    },
    {
        "lat": 47.35595825508031, 
        "lng": 5.0598690526868895,
        "title": "Concert",
        "city": "Dijon",
        "date": "2025-04-10"
    },
    {
        "lat": 45.76848113119856, 
        "lng": 4.9812067807428235,
        "title": "Concert",
        "city": "Lyon",
        "date": "2025-04-11"
    },
    {
        "lat": 45.18572826001708, 
        "lng": 5.741291767219319,
        "title": "Concert",
        "city": "Grenoble",
        "date": "2025-04-12"
    },
    {
        "lat": 46.66673893485713, 
        "lng": 0.36814717098517574,
        "title": "Concert",
        "city": "Poitiers",
        "date": "2025-04-15"
    },
    {
        "lat": 44.82476482479823, 
        "lng": -0.5313928923146011,
        "title": "Concert",
        "city": "Bordeaux",
        "date": "2025-04-16"
    },
    {
        "lat": 47.22880839909667, 
        "lng": -1.6268496909216665,
        "title": "Concert",
        "city": "Nantes",
        "date": "2025-04-22"
    },
    {
        "lat": 47.22880839909667, 
        "lng": -1.6268496909216665,
        "title": "Concert",
        "city": "Nantes",
        "date": "2025-12-13"
    },
    {
        "lat": 49.39455519970186, 
        "lng": 1.0595736729729988,
        "title": "Concert",
        "city": "Rouen",
        "date": "2025-04-23"
    },
    {
        "lat": 49.39455519970186, 
        "lng": 1.0595736729729988,
        "title": "Concert",
        "city": "Rouen",
        "date": "2025-12-16"
    },
    {
        "lat": 43.59840382636073, 
        "lng": 1.409726265296243,
        "title": "Concert",
        "city": "Toulouse",
        "date": "2025-04-25"
    },
    {
        "lat": 43.57359292991635, 
        "lng": 3.952477049381011,
        "title": "Concert",
        "city": "Montpellier",
        "date": "2025-04-26"
    },
    {
        "lat": 43.315189764290075, 
        "lng": 5.404362449942241,
        "title": "Concert",
        "city": "Marseille",
        "date": "2025-04-29"
    },
    {
        "lat": 43.67875206459727, 
        "lng": 7.200017238310852,
        "title": "Concert",
        "city": "Nice",
        "date": "2025-04-30"
    },
    {
        "lat": 47.95632447156969, 
        "lng": 0.22726445755682362,
        "title": "Concert",
        "city": "Le Mans",
        "date": "2025-05-13"
    },
    {
        "lat": 48.10701726857102, 
        "lng": -1.6763642056432155,
        "title": "Concert",
        "city": "Rennes",
        "date": "2025-05-14"
    },
    {
        "lat": 48.387377545485975, 
        "lng": -4.519127211739706,
        "title": "Concert",
        "city": "Brest",
        "date": "2025-05-16"
    },
    {
        "lat": 47.44226403362115, 
        "lng": -0.47616253324044444,
        "title": "Concert",
        "city": "Angers",
        "date": "2025-05-17"
    },
    {
        "lat": 47.49340640939678, 
        "lng": 6.821046123160102,
        "title": "Concert",
        "city": "Montbéliard",
        "date": "2025-05-23"
    },
    {
        "lat": 48.593220984831525, 
        "lng": 7.688287939830132,
        "title": "Concert",
        "city": "Strasbourg",
        "date": "2025-05-24"
    },
    {
        "lat": 50.38272669796561,
        "lng": 3.0954743478826954,
        "title": "Concert",
        "city": "Douai",
        "date": "2025-05-25"
    },
    {
        "lat": 43.33564882844984, 
        "lng": -0.36424171383817705,
        "title": "Concert",
        "city": "Pau",
        "date": "2025-05-30"
    },
    {
        "lat": 45.86237831580397, 
        "lng": 1.2800161976741533,
        "title": "Concert",
        "city": "Limoges",
        "date": "2025-05-31"
    },
    {
        "lat": 45.45458481328588, 
        "lng": 4.393374215099997,
        "title": "Concert",
        "city": "Saint-Etienne",
        "date": "2025-06-01"
    },
    {
        "lat": 49.26424358878713,
        "lng": 4.032528652087961,
        "title": "Concert",
        "city": "Reims",
        "date": "2025-06-13"
    },
    {
        "lat": 47.37809561306009, 
        "lng": 0.7227866017025256,
        "title": "Concert",
        "city": "Tours",
        "date": "2025-06-14"
    },
    {
        "lat": 46.23371399120477, 
        "lng": 6.112864180766192,
        "title": "Concert",
        "city": "Genève",
        "date": "2025-12-05"
    },
    {
        "lat": 48.70983288674075, 
        "lng": 6.140205215266495,
        "title": "Concert",
        "city": "Nancy",
        "date": "2025-12-06"
    },
    {
        "lat": 48.83873087872144, 
        "lng": 2.3792213152732926,
        "title": "Concert",
        "city": "Accor Arena",
        "date": "2025-12-09"
    }

]
